[
{"name": "Domaine de la Font de Mai", "type": "Parc - jardin public", "city": "Aubagne", "longitude": 5.547924, "latitude": 43.311955},
{"name": "Bois de l'Espalères", "type": "Parc - jardin public", "city": "Aubagne", "longitude": 5.576463, "latitude": 43.273081},
{"name": "Le Jardin Magique d'Aurons", "type": "Parc - jardin public", "city": "Aurons", "longitude": 5.155622, "latitude": 43.664925},
{"name": "Parc Jacques Prévert", "type": "Parc - jardin public", "city": "Salon de Provence", "longitude": 5.091342, "latitude": 43.650141},
{"name": "Jardin Public", "type": "Parc - jardin public", "city": "Cassis", "longitude": 5.549764, "latitude": 43.218326},
{"name": "Promenade de la Torse", "type": "Parc - jardin public", "city": "Aix en Provence", "longitude": 5.470483, "latitude": 43.519926},
{"name": "Parc'en ciel", "type": "Parc - jardin public", "city": "Aubagne", "longitude": 5.571275, "latitude": 43.301497},
{"name": "Parc de l'Oasis", "type": "Parc - jardin public", "city": "Marseille", "longitude": 5.363897, "latitude": 43.360469},
{"name": "Complexe sportif Messones (ex la Botte)", "type": "Parc - jardin public", "city": "Aubagne", "longitude": 5.563594, "latitude": 43.2904},
{"name": "Jardin de la Colline Puget", "type": "Parc - jardin public", "city": "Marseille", "longitude": 5.370115, "latitude": 43.289144},
{"name": "Parc Saint-Cyr", "type": "Parc - jardin public", "city": "Marseille", "longitude": 5.438165, "latitude": 43.281329},
{"name": "Jardin du Château de Roussan", "type": "Parc - jardin privé", "city": "Saint Rémy de Provence", "longitude": 4.684393, "latitude": 43.798169},
{"name": "Jardin Palissy", "type": "Parc - jardin public", "city": "Aubagne", "longitude": 5.574687, "latitude": 43.289151},
{"name": "Square place des Martyrs", "type": "Parc - jardin public", "city": "Salon de Provence", "longitude": 5.095822, "latitude": 43.642111},
{"name": "Jardins du Château de La Barben", "type": "Parc - jardin privé", "city": "La Barben", "longitude": 5.193726, "latitude": 43.625407},
{"name": "Parc du Corbusier", "type": "Parc - jardin public", "city": "Marseille", "longitude": 5.395069, "latitude": 43.265414},
{"name": "Espace Naturel de La Coueste", "type": "Parc - jardin public", "city": "Aubagne", "longitude": 5.576463, "latitude": 43.273081},
{"name": "Square François Blanc", "type": "Parc - jardin public", "city": "Salon de Provence", "longitude": 5.106142, "latitude": 43.641444},
{"name": "Square Scarcelli", "type": "Parc - jardin public", "city": "Aubagne", "longitude": 5.565442, "latitude": 43.286451},
{"name": "Parc de la Colline de Cuques", "type": "Parc - jardin public", "city": "Aix en Provence", "longitude": 5.461453, "latitude": 43.5152},
{"name": "Parc Emmanuel Vitria", "type": "Parc - jardin public", "city": "Marseille", "longitude": 5.342359, "latitude": 43.356886},
{"name": "Parc du Bois Sacré", "type": "Parc - jardin public", "city": "Marseille", "longitude": 5.37077, "latitude": 43.282368},
{"name": "Le Jardin d'Eguilles", "type": "Parc - jardin public", "city": "Eguilles", "longitude": 5.353184, "latitude": 43.570563},
{"name": "Le Jardin de Gaston", "type": "Jardin botanique", "city": "Saint Martin de Crau", "longitude": 4.807323, "latitude": 43.632278},
{"name": "Parc Valmer", "type": "Parc - jardin public", "city": "Marseille", "longitude": 5.355235, "latitude": 43.278005},
{"name": "Jardin de la Tourtelle", "type": "Parc - jardin public", "city": "Aubagne", "longitude": 5.552677, "latitude": 43.286246},
{"name": "Jardin Berlioux", "type": "Parc - jardin public", "city": "Aubagne", "longitude": 5.57223, "latitude": 43.300106},
{"name": "Parc Bortoli", "type": "Parc - jardin public", "city": "Marseille", "longitude": 5.395858, "latitude": 43.246588},
{"name": "Parc Georges Vilers", "type": "Parc - jardin public", "city": "Aix en Provence", "longitude": 5.421905, "latitude": 43.525321},
{"name": "Jardin de Belsunce", "type": "Parc - jardin public", "city": "Cassis", "longitude": 5.535913, "latitude": 43.219443},
{"name": "Jardins du Domaine de la Violaine", "type": "Parc - jardin privé", "city": "Venelles", "longitude": 5.49898, "latitude": 43.59508},
{"name": "Parc de Carlevan", "type": "Parc - jardin public", "city": "Allauch", "longitude": 5.510198, "latitude": 43.352286},
{"name": "Parc Jean Moulin", "type": "Parc - jardin public", "city": "Aubagne", "longitude": 5.561574, "latitude": 43.287177},
{"name": "Parc de la Pelouque", "type": "Parc - jardin public", "city": "Marseille", "longitude": 5.337647, "latitude": 43.364535},
{"name": "Parc du Gour", "type": "Parc - jardin public", "city": "Martigues", "longitude": 5.051538, "latitude": 43.427726},
{"name": "Parc Rambot", "type": "Parc - jardin public", "city": "Aix en Provence", "longitude": 5.456401, "latitude": 43.531052},
{"name": "Parc Régis Vidal", "type": "Parc - jardin public", "city": "Cassis", "longitude": 5.551228, "latitude": 43.2239964},
{"name": "Promenade de l'Arc", "type": "Parc - jardin public", "city": "Aix en Provence", "longitude": 5.45851, "latitude": 43.511942},
{"name": "Parc de la Tour de Nedon", "type": "Parc - jardin public", "city": "Istres", "longitude": 4.945827, "latitude": 43.526782},
{"name": "Parc Athéna", "type": "Parc - jardin public", "city": "Marseille", "longitude": 5.439324, "latitude": 43.339163},
{"name": "Cloître du monastère Saint Paul de Mausole", "type": "Parc - jardin public", "city": "Saint Rémy de Provence", "longitude": 4.845673, "latitude": 43.781562},
{"name": "Les jardins", "type": "Parc - jardin public", "city": "Cornillon Confoux", "longitude": 5.070856, "latitude": 43.562503},
{"name": "Le mur végétal", "type": "Jardin divers", "city": "Aix en Provence", "longitude": 5.439084, "latitude": 43.526405},
{"name": "Balade des familles", "type": "Jardin divers", "city": "Marignane", "longitude": 5.2055475, "latitude": 43.4157053},
{"name": "Square Emile Arnaud (1896 - 1987)", "type": "Parc - jardin public", "city": "Salon de Provence", "longitude": 5.059719, "latitude": 43.641541},
{"name": "Jardin Salvador Dali", "type": "Parc - jardin public", "city": "Marignane", "longitude": 5.2171811, "latitude": 43.4172279},
{"name": "Jardin Antoine Maurel", "type": "Parc - jardin public", "city": "Pélissanne", "longitude": 5.154376, "latitude": 43.64194},
{"name": "Les Sources des Nayes", "type": "Parc - jardin public", "city": "Saint Zacharie", "longitude": 5.705467, "latitude": 43.378951},
{"name": "Jardin de Payan", "type": "Jardin botanique", "city": "Tarascon", "longitude": 4.694201, "latitude": 43.760032},
{"name": "Parc du Ponant", "type": "Parc - jardin public", "city": "Port Saint Louis du Rhône", "longitude": 4.791592, "latitude": 43.399362},
{"name": "Parc Saint Mitre", "type": "Parc - jardin public", "city": "Aix en Provence", "longitude": 5.4221552, "latitude": 43.5319903},
{"name": "Jardin de la ville", "type": "Parc - jardin public", "city": "La Ciotat", "longitude": 5.60929, "latitude": 43.17745},
{"name": "Jardin du Musée Frédéric Mistral", "type": "Parc - jardin public", "city": "Maillane", "longitude": 4.782482, "latitude": 43.830922},
{"name": "Jardin des Remparts", "type": "Parc - jardin public", "city": "Trets", "longitude": 5.682334899902344, "latitude": 43.44706166645264},
{"name": "Parc des 7 Collines", "type": "Parc - jardin public", "city": "Marseille", "longitude": 5.4882679, "latitude": 43.2848916},
{"name": "Parc Maureau", "type": "Parc - jardin public", "city": "Pélissanne", "longitude": 5.150244, "latitude": 43.631313},
{"name": "Parc Ferrage", "type": "Parc - jardin public", "city": "Marignane", "longitude": 5.206747, "latitude": 43.418032},
{"name": "Bambous en Provence", "type": "Jardin botanique", "city": "Eyragues", "longitude": 4.8207485, "latitude": 43.8465322},
{"name": "Jardin d'été", "type": "Parc - jardin public", "city": "Arles", "longitude": 4.629457, "latitude": 43.675467},
{"name": "Parc du Pigeonnier", "type": "Parc - jardin public", "city": "Salon de Provence", "longitude": 5.093951, "latitude": 43.645647},
{"name": "Parc de la légion d'honneur (ancien République)", "type": "Parc - jardin public", "city": "Salon de Provence", "longitude": 5.093215, "latitude": 43.640583},
{"name": "Jardin du Prieuré", "type": "Parc - jardin public", "city": "Martigues", "longitude": 5.056656, "latitude": 43.413407},
{"name": "Parc Central de Bonneveine", "type": "Parc - jardin public", "city": "Marseille", "longitude": 5.38875, "latitude": 43.25038},
{"name": "Jardin de Corbière", "type": "Parc - jardin public", "city": "Marseille", "longitude": 5.293515, "latitude": 43.359711},
{"name": "Parc Chanot", "type": "Parc - jardin public", "city": "Marseille", "longitude": 5.395069, "latitude": 43.265414},
{"name": "Parc Brégante", "type": "Parc - jardin public", "city": "Marseille", "longitude": 5.3576017, "latitude": 43.3600653},
{"name": "Parc des Bruyères", "type": "Parc - jardin public", "city": "Marseille", "longitude": 5.436316, "latitude": 43.277261},
{"name": "Parc de Font Obscure", "type": "Parc - jardin public", "city": "Marseille", "longitude": 5.400839, "latitude": 43.329154},
{"name": "Parc de Maison Blanche", "type": "Parc - jardin public", "city": "Marseille", "longitude": 5.416975, "latitude": 43.268076},
{"name": "Jardin des Vestiges - Port antique- Fermé pour travaux", "type": "Parc - jardin public", "city": "Marseille", "longitude": 5.37407, "latitude": 43.29786},
{"name": "Parc du 26e Centenaire", "type": "Parc - jardin public", "city": "Marseille", "longitude": 5.4306141, "latitude": 43.2731832},
{"name": "Parc du Grand Séminaire", "type": "Parc - jardin public", "city": "Marseille", "longitude": 5.378119, "latitude": 43.346997},
{"name": "Parc Henri Fabre", "type": "Parc - jardin public", "city": "Marseille", "longitude": 5.383074, "latitude": 43.266032},
{"name": "Parc Pastré", "type": "Parc - jardin public", "city": "Marseille", "longitude": 5.36705, "latitude": 43.240149},
{"name": "Parc de la colline Saint-Joseph", "type": "Parc - jardin public", "city": "Marseille", "longitude": 5.424588, "latitude": 43.25051},
{"name": "Jardin de la Magalone", "type": "Parc - jardin public", "city": "Marseille", "longitude": 5.39751, "latitude": 43.261989},
{"name": "Parc François Billoux", "type": "Parc - jardin public", "city": "Marseille", "longitude": 5.365105, "latitude": 43.330607},
{"name": "Parc de la Romaniquette", "type": "Parc - jardin public", "city": "Istres", "longitude": 4.945827, "latitude": 43.526782},
{"name": "Parc de Bagatelle", "type": "Parc - jardin public", "city": "Marseille", "longitude": 5.379172, "latitude": 43.270364},
{"name": "Jardin aquatique \"Aux fleurs de l'Eau\"", "type": "Parc - jardin privé", "city": "Graveson", "longitude": 4.781647, "latitude": 43.838387},
{"name": "Pinède des 4 vents", "type": "Parc - jardin public", "city": "Istres", "longitude": 4.945827, "latitude": 43.526782},
{"name": "Parc Bertoglio", "type": "Parc - jardin public", "city": "Lambesc", "longitude": 5.2621017, "latitude": 43.6575785},
{"name": "Parc Saint-Martin", "type": "Parc - jardin public", "city": "Pélissanne", "longitude": 5.159212, "latitude": 43.630368},
{"name": "Parc Jourdan", "type": "Parc - jardin public", "city": "Aix en Provence", "longitude": 5.448566, "latitude": 43.523197},
{"name": "Place du Général de Gaulle et son Jardin d'enfants", "type": "Parc - jardin public", "city": "Salon de Provence", "longitude": 5.095586, "latitude": 43.641723},
{"name": "Parc Balnéaire du Prado", "type": "Parc - jardin public", "city": "Marseille", "longitude": 5.373231, "latitude": 43.265029},
{"name": "Grand Parc de Figuerolles", "type": "Parc - jardin public", "city": "Martigues", "longitude": 5.042376, "latitude": 43.43547},
{"name": "Jardin du Pharo-Emile Duclaux", "type": "Parc - jardin public", "city": "Marseille", "longitude": 5.360826, "latitude": 43.292242},
{"name": "Parcours de santé", "type": "Parc - jardin public", "city": "Salon de Provence", "longitude": 5.070279, "latitude": 43.649932},
{"name": "Les jardins méditerranéens du parc de Figuerolles", "type": "Jardin botanique", "city": "Martigues", "longitude": 5.048715, "latitude": 43.433236},
{"name": "Jardin de La Rode", "type": "Parc - jardin public", "city": "Martigues", "longitude": 5.058061, "latitude": 43.413596},
{"name": "Jardin Sainte Catherine", "type": "Parc - jardin public", "city": "Istres", "longitude": 4.987353, "latitude": 43.51656},
{"name": "Square Mouton", "type": "Parc - jardin public", "city": "La Ciotat", "longitude": 5.612432, "latitude": 43.180452},
{"name": "Jardin Public de Ferrières", "type": "Jardin botanique", "city": "Martigues", "longitude": 5.05665, "latitude": 43.40784},
{"name": "Parc forestier de l'Ecomusée de la forêt", "type": "Parc - jardin public", "city": "Gardanne", "longitude": 5.467296, "latitude": 43.459072},
{"name": "Jardins de la Bastide de Romégas", "type": "Parc - jardin privé", "city": "Aix en Provence", "longitude": 5.453262, "latitude": 43.54954},
{"name": "Jardin de l'alchimiste", "type": "Parc - jardin privé", "city": "Eygalières", "longitude": 4.955474, "latitude": 43.763806},
{"name": "Parc des Garrigues", "type": "Parc - jardin public", "city": "Rognes", "longitude": 5.340769, "latitude": 43.664172},
{"name": "Jardin des Quatre Saisons", "type": "Parc - jardin public", "city": "Graveson", "longitude": 4.7708, "latitude": 43.85399},
{"name": "Les berges de l'Huveaune", "type": "Parc - jardin public", "city": "Aubagne", "longitude": 5.569682, "latitude": 43.293997},
{"name": "Parc du Château d'Avignon", "type": "Parc - jardin public", "city": "Saintes Maries de la Mer", "longitude": 4.43879, "latitude": 43.5131812},
{"name": "Les Jardins de l'Espérance", "type": "Parc - jardin privé", "city": "La Ciotat", "longitude": 5.614482, "latitude": 43.203997},
{"name": "Parc de la Mirabelle", "type": "Parc - jardin public", "city": "Marseille", "longitude": 5.445947, "latitude": 43.295595},
{"name": "Jardins du Pavillon de Vendôme", "type": "Parc - jardin public", "city": "Aix en Provence", "longitude": 5.442915, "latitude": 43.530084},
{"name": "Parc Maurin", "type": "Jardin botanique", "city": "Berre l'Etang", "longitude": 5.167847, "latitude": 43.488612},
{"name": "Jardins d'Albertas", "type": "Parc - jardin privé", "city": "Bouc Bel Air", "longitude": 5.40599, "latitude": 43.4533},
{"name": "Parc Henri Fabre", "type": "Parc - jardin public", "city": "Berre l'Etang", "longitude": 5.1777219, "latitude": 43.4820495},
{"name": "Jardin du château de Tarascon", "type": "Parc - jardin privé", "city": "Tarascon", "longitude": 4.6554905, "latitude": 43.806177},
{"name": "Domaine de Valbrillant", "type": "Jardin botanique", "city": "Meyreuil", "longitude": 5.510541, "latitude": 43.488489},
{"name": "Parc Naturel du Mugel", "type": "Parc - jardin public", "city": "La Ciotat", "longitude": 5.60483, "latitude": 43.1629},
{"name": "Parc de Trigance", "type": "Parc - jardin public", "city": "Istres", "longitude": 4.94548, "latitude": 43.521216},
{"name": "Parc municipal - jardin d'enfants", "type": "Parc - jardin public", "city": "Fontvieille", "longitude": 4.70941, "latitude": 43.725522},
{"name": "Parc des Salles", "type": "Parc - jardin public", "city": "Istres", "longitude": 4.945827, "latitude": 43.526782},
{"name": "Parc des Roches Blanches", "type": "Parc - jardin public", "city": "Istres", "longitude": 4.995378, "latitude": 43.507733},
{"name": "Hortus", "type": "Parc - jardin public", "city": "Arles", "longitude": 4.61679, "latitude": 43.672947},
{"name": "Parc du Palais Longchamp", "type": "Parc - jardin public", "city": "Marseille", "longitude": 5.398074, "latitude": 43.305647},
{"name": "Jardin Botanique E.M. Heckel", "type": "Parc - jardin public", "city": "Marseille", "longitude": 5.384095, "latitude": 43.258647},
{"name": "Parc Borély", "type": "Parc - jardin public", "city": "Marseille", "longitude": 5.378591, "latitude": 43.26273},
{"name": "Parc de la Révolution", "type": "Parc - jardin public", "city": "Port Saint Louis du Rhône", "longitude": 4.801542, "latitude": 43.388277},
{"name": "Square Nougaret", "type": "Parc - jardin public", "city": "Port Saint Louis du Rhône", "longitude": 4.791592, "latitude": 43.399362},
{"name": "Parc Léo Lélée", "type": "Parc - jardin public", "city": "Port Saint Louis du Rhône", "longitude": 4.799895, "latitude": 43.395718},
{"name": "Jardin d'Alcinoos", "type": "Jardin botanique", "city": "Saint Rémy de Provence", "longitude": 4.796938, "latitude": 43.783339}
]
